{
"type": "FeatureCollection",
"name": "Points_coutances",
"crs": { "type": "name", "properties": { "name": "urn:ogc:def:crs:OGC:1.3:CRS84" } },
"features": [
{ "type": "Feature", "properties": { "code": "COUVK1", "description": "", "id": "FR:50147:ZE:8905:ATOUMOD018", "name": "Vikings", "wheelchair_boarding": "unknown", "Lignes": "Ligne 1", "route_color": null, "route_id": null, "route_long_name": null, "route_short_name": null, "route_text_color": null }, "geometry": { "type": "Point", "coordinates": [ -1.43783, 49.055047 ] } },
{ "type": "Feature", "properties": { "code": "MTHSDF", "description": "", "id": "FR:50345:ZE:559:ATOUMOD018", "name": "Salle des fêtes", "wheelchair_boarding": "unknown", "Lignes": "Ligne 1", "route_color": null, "route_id": null, "route_long_name": null, "route_short_name": null, "route_text_color": null }, "geometry": { "type": "Point", "coordinates": [ -1.422307, 49.081875 ] } },
{ "type": "Feature", "properties": { "code": "COULY1", "description": "", "id": "FR:50147:ZE:8912:ATOUMOD018", "name": "Lycée", "wheelchair_boarding": "unknown", "Lignes": "Ligne 1 et 2", "route_color": null, "route_id": null, "route_long_name": null, "route_short_name": null, "route_text_color": null }, "geometry": { "type": "Point", "coordinates": [ -1.444247, 49.046214 ] } },
{ "type": "Feature", "properties": { "code": "BLBMAI", "description": "", "id": "FR:50084:ZE:9341:ATOUMOD018", "name": "Mairie", "wheelchair_boarding": "unknown", "Lignes": "Ligne 2", "route_color": null, "route_id": null, "route_long_name": null, "route_short_name": null, "route_text_color": null }, "geometry": { "type": "Point", "coordinates": [ -1.477185, 49.035601 ] } },
{ "type": "Feature", "properties": { "code": "COUWO1", "description": "", "id": "FR:50147:ZE:8934:ATOUMOD018", "name": "Place Général Wood", "wheelchair_boarding": "unknown", "Lignes": "Ligne 1 et 2", "route_color": null, "route_id": null, "route_long_name": null, "route_short_name": null, "route_text_color": null }, "geometry": { "type": "Point", "coordinates": [ -1.444789, 49.051335 ] } },
{ "type": "Feature", "properties": { "code": "COUCS1", "description": "", "id": "FR:50147:ZE:9199:ATOUMOD018", "name": "Square Colonel Storck", "wheelchair_boarding": "unknown", "Lignes": "Ligne 1", "route_color": null, "route_id": null, "route_long_name": null, "route_short_name": null, "route_text_color": null }, "geometry": { "type": "Point", "coordinates": [ -1.443794, 49.0366 ] } },
{ "type": "Feature", "properties": { "code": "COULO1", "description": "", "id": "FR:50147:ZE:8894:ATOUMOD018", "name": "La Louverie", "wheelchair_boarding": "unknown", "Lignes": "Ligne 1", "route_color": null, "route_id": null, "route_long_name": null, "route_short_name": null, "route_text_color": null }, "geometry": { "type": "Point", "coordinates": [ -1.432152, 49.065642 ] } },
{ "type": "Feature", "properties": { "code": "COUJU1", "description": "", "id": "FR:50147:ZE:8923:ATOUMOD018", "name": "Palais-de-Justice", "wheelchair_boarding": "unknown", "Lignes": "Ligne 1 et 2", "route_color": null, "route_id": null, "route_long_name": null, "route_short_name": null, "route_text_color": null }, "geometry": { "type": "Point", "coordinates": [ -1.442845, 49.049514 ] } },
{ "type": "Feature", "properties": { "code": "COUHO1", "description": "", "id": "FR:50147:ZE:8917:ATOUMOD018", "name": "Hôpital", "wheelchair_boarding": "unknown", "Lignes": "Ligne 1 et 2", "route_color": null, "route_id": null, "route_long_name": null, "route_short_name": null, "route_text_color": null }, "geometry": { "type": "Point", "coordinates": [ -1.442701, 49.040962 ] } },
{ "type": "Feature", "properties": { "code": "COUPA1", "description": "", "id": "FR:50147:ZE:8927:ATOUMOD018", "name": "Parc des Sports", "wheelchair_boarding": "unknown", "Lignes": "Ligne 2", "route_color": null, "route_id": null, "route_long_name": null, "route_short_name": null, "route_text_color": null }, "geometry": { "type": "Point", "coordinates": [ -1.453658, 49.051705 ] } },
{ "type": "Feature", "properties": { "code": "COUCF1", "description": "", "id": "FR:50147:ZE:8903:ATOUMOD018", "name": "Claires-Fontaines", "wheelchair_boarding": "unknown", "Lignes": "Ligne 1", "route_color": null, "route_id": null, "route_long_name": null, "route_short_name": null, "route_text_color": null }, "geometry": { "type": "Point", "coordinates": [ -1.43314, 49.055959 ] } },
{ "type": "Feature", "properties": { "code": "COUGU1", "description": "", "id": "FR:50147:ZE:8900:ATOUMOD018", "name": "La Guérie", "wheelchair_boarding": "unknown", "Lignes": "Ligne 1", "route_color": null, "route_id": null, "route_long_name": null, "route_short_name": null, "route_text_color": null }, "geometry": { "type": "Point", "coordinates": [ -1.429569, 49.057707 ] } },
{ "type": "Feature", "properties": { "code": "COUMA1", "description": "", "id": "FR:50147:ZE:8910:ATOUMOD018", "name": "Mairie", "wheelchair_boarding": "unknown", "Lignes": "Ligne 1 et 2", "route_color": null, "route_id": null, "route_long_name": null, "route_short_name": null, "route_text_color": null }, "geometry": { "type": "Point", "coordinates": [ -1.444676, 49.047976 ] } },
{ "type": "Feature", "properties": { "code": "COUDG1", "description": "", "id": "FR:50147:ZE:8932:ATOUMOD018", "name": "Place Général de Gaulle", "wheelchair_boarding": "unknown", "Lignes": "Ligne 1 et 2", "route_color": null, "route_id": null, "route_long_name": null, "route_short_name": null, "route_text_color": null }, "geometry": { "type": "Point", "coordinates": [ -1.442631, 49.047128 ] } },
{ "type": "Feature", "properties": { "code": "COUUN1", "description": "", "id": "FR:50147:ZE:8908:ATOUMOD018", "name": "Les Unelles", "wheelchair_boarding": "unknown", "Lignes": "Ligne 1 et 2", "route_color": null, "route_id": null, "route_long_name": null, "route_short_name": null, "route_text_color": null }, "geometry": { "type": "Point", "coordinates": [ -1.446406, 49.049489 ] } },
{ "type": "Feature", "properties": { "code": "COUGA1", "description": "", "id": "FR:50147:ZE:8914:ATOUMOD018", "name": "Gare SNCF", "wheelchair_boarding": "unknown", "Lignes": "Ligne 1 et 2", "route_color": null, "route_id": null, "route_long_name": null, "route_short_name": null, "route_text_color": null }, "geometry": { "type": "Point", "coordinates": [ -1.442366, 49.043065 ] } },
{ "type": "Feature", "properties": { "code": "SPCBW1", "description": "", "id": "FR:50537:ZE:9132:ATOUMOD018", "name": "Complexe Saint-Pierre", "wheelchair_boarding": "unknown", "Lignes": "Ligne 1", "route_color": null, "route_id": null, "route_long_name": null, "route_short_name": null, "route_text_color": null }, "geometry": { "type": "Point", "coordinates": [ -1.446338, 49.033392 ] } },
{ "type": "Feature", "properties": { "code": "SPCTRI", "description": "", "id": "FR:50537:ZE:9342:ATOUMOD018", "name": "Haut-Mesnil", "wheelchair_boarding": "unknown", "Lignes": "Ligne 2", "route_color": null, "route_id": null, "route_long_name": null, "route_short_name": null, "route_text_color": null }, "geometry": { "type": "Point", "coordinates": [ -1.453706, 49.033841 ] } },
{ "type": "Feature", "properties": { "code": "COUGB1", "description": "", "id": "FR:50147:ZE:8925:ATOUMOD018", "name": "Place Gambetta", "wheelchair_boarding": "unknown", "Lignes": "Ligne 1 et 2", "route_color": null, "route_id": null, "route_long_name": null, "route_short_name": null, "route_text_color": null }, "geometry": { "type": "Point", "coordinates": [ -1.44306, 49.051426 ] } },
{ "type": "Feature", "properties": { "code": "COURO1", "description": "", "id": "FR:50147:ZE:8897:ATOUMOD018", "name": "Le Roqueret", "wheelchair_boarding": "unknown", "Lignes": "Ligne 1", "route_color": null, "route_id": null, "route_long_name": null, "route_short_name": null, "route_text_color": null }, "geometry": { "type": "Point", "coordinates": [ -1.4336, 49.061678 ] } },
{ "type": "Feature", "properties": { "code": "COUDE1", "description": "", "id": "FR:50147:ZE:8930:ATOUMOD018", "name": "ZA Délasse", "wheelchair_boarding": "unknown", "Lignes": "Ligne 2", "route_color": null, "route_id": null, "route_long_name": null, "route_short_name": null, "route_text_color": null }, "geometry": { "type": "Point", "coordinates": [ -1.462714, 49.053888 ] } }
]
}
